{
  "version": 0.6,
  "generator": "Overpass API 0.7.62.11 87bfad18",
  "osm3s": {
    "timestamp_osm_base": "2026-03-12T23:52:04Z",
    "timestamp_areas_base": "2026-03-12T17:54:01Z",
    "copyright": "The data included in this document is from www.openstreetmap.org. The data is made available under ODbL."
  },
  "elements": [
    {
      "type": "node",
      "id": 2398997274,
      "lat": 43.1130973,
      "lon": -77.5326063,
      "tags": {
        "access": "private",
        "addr:city": "Rochester",
        "addr:housenumber": "145",
        "addr:postcode": "14618",
        "addr:state": "NY",
        "addr:street": "Kilbourn Road",
        "leisure": "golf_course",
        "name": "Oak Hill Country Club",
        "phone": "+1 585-586-1660",
        "website": "https://www.oakhillcc.com/",
        "wikidata": "Q7073570"
      }
    },
    {
      "type": "node",
      "id": 2854158382,
      "lat": 40.7486553,
      "lon": -73.4457528,
      "tags": {
        "leisure": "golf_course",
        "name": "Bethpage Black"
      }
    },
    {
      "type": "node",
      "id": 3697651935,
      "lat": 43.0227535,
      "lon": -76.1014585,
      "tags": {
        "addr:country": "US",
        "addr:housenumber": "200",
        "addr:postcode": "13224",
        "addr:state": "NY",
        "addr:street": "Waring Road",
        "contact:website": "http://tecumsehclub.com/",
        "leisure": "golf_course",
        "name": "Tecumseh Golf Club",
        "phone": "+1-315-445-0963",
        "source:addr:postcode": "TIGER 2015"
      }
    },
    {
      "type": "node",
      "id": 4015842782,
      "lat": 41.3851562,
      "lon": -73.916801,
      "tags": {
        "leisure": "golf_course"
      }
    },
    {
      "type": "node",
      "id": 5366654566,
      "lat": 42.5523791,
      "lon": -77.6955865,
      "tags": {
        "leisure": "golf_course",
        "name": "Brae Burn Golf Pro Shop"
      }
    },
    {
      "type": "node",
      "id": 5616067006,
      "lat": 40.6592646,
      "lon": -73.4393675,
      "tags": {
        "leisure": "golf_course",
        "name": "Peninsula Golf Club"
      }
    },
    {
      "type": "node",
      "id": 6033212585,
      "lat": 43.7835436,
      "lon": -74.3016361,
      "tags": {
        "addr:city": "Indian Lake",
        "addr:housenumber": "6689",
        "addr:postcode": "12842",
        "addr:state": "NY",
        "addr:street": "State Highway 30",
        "description": "Cedar River Golf Course, Driving Range, Restaurant, & Motel",
        "leisure": "golf_course",
        "name": "Cedar River Golf Course",
        "website": "https://cedarrivergolf.com/"
      }
    },
    {
      "type": "node",
      "id": 8784136199,
      "lat": 42.7200122,
      "lon": -75.8129862,
      "tags": {
        "addr:city": "DeRuyter",
        "addr:housenumber": "1230",
        "addr:postcode": "13052",
        "addr:state": "NY",
        "addr:street": "Mariposa Road",
        "leisure": "golf_course",
        "name": "Apple Creek Golf Course",
        "nysgissam:nysaddresspointid": "CHEN012187",
        "phone": "+1-315-852-6466",
        "website": "https://www.applecreekcc.com"
      }
    },
    {
      "type": "node",
      "id": 8793485507,
      "lat": 42.1168793,
      "lon": -76.0189143,
      "tags": {
        "addr:city": "Endicott",
        "addr:housenumber": "3523",
        "addr:postcode": "13760",
        "addr:state": "NY",
        "addr:street": "Country Club Road",
        "leisure": "golf_course",
        "name": "Fairways Indoor Golf",
        "nysgissam:nysaddresspointid": "BROO111825",
        "opening_hours": "Mo-Fr 09:00-22:00; Sa-Su 07:00-23:00",
        "phone": "+1 607 444 3637",
        "website": "https://www.fairwaysindoor.golf/"
      }
    },
    {
      "type": "node",
      "id": 11077763599,
      "lat": 42.6866265,
      "lon": -75.4354287,
      "tags": {
        "leisure": "golf_course",
        "name": "Mountain Top Golf Course"
      }
    },
    {
      "type": "node",
      "id": 12336867753,
      "lat": 41.033587,
      "lon": -73.9462382,
      "tags": {
        "addr:city": "Tappan",
        "addr:housenumber": "116",
        "addr:postcode": "10983",
        "addr:state": "NY",
        "addr:street": "New York 303",
        "contact:facebook": "https://www.facebook.com/novogolfusa",
        "description": "Tappan Golf Center is 26 acres of family fun activities in Tappan, NY. Our miniature golf course features eighteen holes along a beautifully designed layout, packed with all manner of challenges and hazards sure to engage golfers of all ages.",
        "email": "info@novogolf.com",
        "leisure": "golf_course",
        "name": "Tappan Golf Center",
        "opening_hours": "Mo-Su 07:00-22:00",
        "phone": "+1 845-359-0642",
        "website": "https://www.clostergolfcenter.com/"
      }
    },
    {
      "type": "node",
      "id": 12737850375,
      "lat": 40.9389568,
      "lon": -72.6801711,
      "tags": {
        "addr:city": "RIverhead",
        "addr:housenumber": "1521",
        "addr:postcode": "11901",
        "addr:state": "NY",
        "addr:street": "Roanoke Avenue",
        "contact:facebook": "https://www.facebook.com/profile.php?id=100089272137358&mibextid=wwXIfr&mibextid=wwXIfr",
        "leisure": "golf_course",
        "name": "Sandy Pond Golf Links",
        "opening_hours": "Mo-Su 08:00-18:00",
        "operator": "Sandy Pond Links LLC",
        "phone": "+1-631-660-8368",
        "website": "https://sandypondlinks.com/"
      }
    },
    {
      "type": "way",
      "id": 24154378,
      "center": {
        "lat": 43.0407766,
        "lon": -78.837648
      },
      "tags": {
        "addr:housenumber": "1818",
        "addr:street": "Sweeney St",
        "leisure": "golf_course",
        "name": "Deerwood Golf Course",
        "operator": "North Tonawanda Parks Dept",
        "website": "https://www.northtonawanda.org/Department%20Information/Parks%20&%20Recreation/Deerwood%20Golf%20Course%20.htm"
      }
    },
    {
      "type": "way",
      "id": 25163218,
      "center": {
        "lat": 40.7822022,
        "lon": -73.7885755
      },
      "tags": {
        "leisure": "golf_course",
        "name": "Clearview Park"
      }
    },
    {
      "type": "way",
      "id": 25691045,
      "center": {
        "lat": 40.7442877,
        "lon": -73.7993943
      },
      "tags": {
        "access": "yes",
        "addr:city": "Flushing",
        "addr:housenumber": "165-14",
        "addr:postcode": "11365",
        "addr:state": "NY",
        "addr:street": "Booth Memorial Avenue",
        "leisure": "golf_course",
        "name": "Kissena Golf Course",
        "phone": "+1-718-939-4594",
        "website": "https://www.golfnyc.com/kissena-course/"
      }
    },
    {
      "type": "way",
      "id": 28452574,
      "center": {
        "lat": 40.908402,
        "lon": -72.4576518
      },
      "tags": {
        "leisure": "golf_course",
        "name": "Sebonack Golf Course",
        "wikidata": "Q14707283"
      }
    },
    {
      "type": "way",
      "id": 28989103,
      "center": {
        "lat": 40.9063252,
        "lon": -72.4492451
      },
      "tags": {
        "leisure": "golf_course",
        "name": "National Golf Links of America",
        "wikidata": "Q6972914"
      }
    },
    {
      "type": "way",
      "id": 29270704,
      "center": {
        "lat": 40.9621494,
        "lon": -72.7433074
      },
      "tags": {
        "area": "yes",
        "leisure": "golf_course",
        "name": "Baiting Hallow Golf Club"
      }
    },
    {
      "type": "way",
      "id": 29468839,
      "center": {
        "lat": 40.7463019,
        "lon": -73.453623
      },
      "tags": {
        "leisure": "golf_course",
        "name": "Bethpage State Park Golf Courses"
      }
    },
    {
      "type": "way",
      "id": 30038151,
      "center": {
        "lat": 40.6980538,
        "lon": -73.6379313
      },
      "tags": {
        "leisure": "golf_course",
        "name": "Hempstead Golf and Country Club",
        "website": "https://www.hempsteadcountryclub.com/"
      }
    },
    {
      "type": "way",
      "id": 30122016,
      "center": {
        "lat": 40.8179229,
        "lon": -73.4819135
      },
      "tags": {
        "leisure": "golf_course",
        "name": "Town of Oyster Bay Public Golf Course"
      }
    },
    {
      "type": "way",
      "id": 30427647,
      "center": {
        "lat": 40.6380181,
        "lon": -73.7354864
      },
      "tags": {
        "leisure": "golf_course",
        "name": "North Woodmere Golf Course",
        "source": "local_knowledge"
      }
    },
    {
      "type": "way",
      "id": 30432711,
      "center": {
        "lat": 40.7524246,
        "lon": -73.7325397
      },
      "tags": {
        "addr:city": "Douglaston",
        "addr:housenumber": "6320",
        "addr:postcode": "11363",
        "addr:state": "NY",
        "addr:street": "Marathon Pkwy",
        "leisure": "golf_course",
        "name": "Douglaston Golf Course",
        "phone": "+1-718-224-6566",
        "website": "https://www.golfnyc.com/douglaston-course/",
        "wikidata": "Q5302202"
      }
    },
    {
      "type": "way",
      "id": 30471649,
      "center": {
        "lat": 40.6270558,
        "lon": -73.6647278
      },
      "tags": {
        "leisure": "golf_course"
      }
    },
    {
      "type": "way",
      "id": 30471672,
      "center": {
        "lat": 40.6311793,
        "lon": -73.6819127
      },
      "tags": {
        "leisure": "golf_course",
        "name": "The Seawane Club"
      }
    },
    {
      "type": "way",
      "id": 30802904,
      "center": {
        "lat": 41.5193563,
        "lon": -73.8965336
      },
      "tags": {
        "leisure": "golf_course",
        "name": "Fishkill Golf Course"
      }
    },
    {
      "type": "way",
      "id": 31191487,
      "center": {
        "lat": 41.6666927,
        "lon": -73.9224562
      },
      "tags": {
        "leisure": "golf_course",
        "name": "Dutchess Golf Club",
        "sport": "golf"
      }
    },
    {
      "type": "way",
      "id": 31191667,
      "center": {
        "lat": 41.6466777,
        "lon": -73.9177472
      },
      "tags": {
        "addr:city": "Poughkeepsie",
        "addr:housenumber": "110",
        "addr:postcode": "12601",
        "addr:state": "NY",
        "addr:street": "Golf Club Lane",
        "leisure": "golf_course",
        "name": "Casperkill Golf Club",
        "phone": "+1-845-463-0900",
        "sport": "golf",
        "website": "https://www.casperkillgolf.com/"
      }
    },
    {
      "type": "way",
      "id": 31264433,
      "center": {
        "lat": 41.714428,
        "lon": -73.9114557
      },
      "tags": {
        "addr:city": "Poughkeepsie",
        "addr:housenumber": "149",
        "addr:postcode": "12601",
        "addr:state": "NY",
        "addr:street": "North Clinton Street",
        "leisure": "golf_course",
        "name": "College Hill Golf Course",
        "nysgissam:nysaddresspointid": "DUTC014260",
        "operator": "McMann-Caven",
        "phone": "+1-845-486-9112",
        "sport": "golf",
        "website": "https://www.mccanngolfcourse.com/college-hill-golf-course"
      }
    },
    {
      "type": "way",
      "id": 31766959,
      "center": {
        "lat": 44.2490754,
        "lon": -73.9425796
      },
      "tags": {
        "leisure": "golf_course",
        "name": "Craig Wood Golf & Country Club"
      }
    },
    {
      "type": "way",
      "id": 31992247,
      "center": {
        "lat": 40.822621,
        "lon": -73.5123713
      },
      "tags": {
        "leisure": "golf_course",
        "name": "The Woodside Club",
        "website": "https://www.woodsideclub.com/"
      }
    },
    {
      "type": "way",
      "id": 32039352,
      "center": {
        "lat": 40.9216016,
        "lon": -73.1133622
      },
      "tags": {
        "leisure": "golf_course",
        "name": "St. Georges Golf and Country Club"
      }
    },
    {
      "type": "way",
      "id": 32073479,
      "center": {
        "lat": 41.0230369,
        "lon": -73.9225277
      },
      "tags": {
        "leisure": "golf_course",
        "name": "Rockland Country Club",
        "wikidata": "Q7355438"
      }
    },
    {
      "type": "way",
      "id": 32073485,
      "center": {
        "lat": 41.0508302,
        "lon": -73.9667391
      },
      "tags": {
        "leisure": "golf_course",
        "name": "Broadacres Golf Club"
      }
    },
    {
      "type": "way",
      "id": 32073532,
      "center": {
        "lat": 41.0690322,
        "lon": -73.988171
      },
      "tags": {
        "leisure": "golf_course",
        "name": "Manhattan Woods Golf Club"
      }
    },
    {
      "type": "way",
      "id": 32073548,
      "center": {
        "lat": 41.1280918,
        "lon": -73.9158586
      },
      "tags": {
        "leisure": "golf_course",
        "name": "Rockland Lake Executive Golf Course"
      }
    },
    {
      "type": "way",
      "id": 32073565,
      "center": {
        "lat": 41.154535,
        "lon": -73.9218711
      },
      "tags": {
        "leisure": "golf_course",
        "name": "Rockland Lake Championship Golf Course"
      }
    },
    {
      "type": "way",
      "id": 32073597,
      "center": {
        "lat": 41.178877,
        "lon": -73.99091
      },
      "tags": {
        "leisure": "golf_course",
        "name": "Dellwood Country Club"
      }
    },
    {
      "type": "way",
      "id": 32073656,
      "center": {
        "lat": 41.0491407,
        "lon": -73.9939903
      },
      "tags": {
        "leisure": "golf_course",
        "name": "Blue Hill Golf Course"
      }
    },
    {
      "type": "way",
      "id": 32764235,
      "center": {
        "lat": 41.1716435,
        "lon": -74.0480328
      },
      "tags": {
        "leisure": "golf_course",
        "name": "Minisceongo Golf Club"
      }
    },
    {
      "type": "way",
      "id": 33871112,
      "center": {
        "lat": 40.5889315,
        "lon": -74.1142057
      },
      "tags": {
        "leisure": "golf_course",
        "name": "Richmond County Country Club",
        "phone": "+1-718-351-0600",
        "website": "http://www.richmondcountycc.org/"
      }
    },
    {
      "type": "way",
      "id": 33872010,
      "center": {
        "lat": 40.6252249,
        "lon": -74.1014445
      },
      "tags": {
        "leisure": "golf_course",
        "name": "Silver Lake Golf Course"
      }
    },
    {
      "type": "way",
      "id": 33900582,
      "center": {
        "lat": 40.5500648,
        "lon": -74.2054531
      },
      "tags": {
        "leisure": "golf_course",
        "name": "South Shore Golf Course",
        "sport": "golf"
      }
    },
    {
      "type": "way",
      "id": 35261896,
      "center": {
        "lat": 41.5240003,
        "lon": -74.0174123
      },
      "tags": {
        "leisure": "golf_course"
      }
    },
    {
      "type": "way",
      "id": 40419838,
      "center": {
        "lat": 42.9738193,
        "lon": -78.7561996
      },
      "tags": {
        "leisure": "golf_course",
        "name": "Park Country Club",
        "source": "Yahoo"
      }
    },
    {
      "type": "way",
      "id": 48997214,
      "center": {
        "lat": 40.7904889,
        "lon": -73.2416688
      },
      "tags": {
        "leisure": "golf_course",
        "name": "Brentwood Country Club"
      }
    },
    {
      "type": "way",
      "id": 49130631,
      "center": {
        "lat": 40.7173702,
        "lon": -73.1454038
      },
      "tags": {
        "leisure": "golf_course",
        "name": "Timber Point Golf Course"
      }
    },
    {
      "type": "way",
      "id": 49134266,
      "center": {
        "lat": 40.7883037,
        "lon": -73.0584071
      },
      "tags": {
        "leisure": "golf_course",
        "name": "Holbrook Country Club"
      }
    },
    {
      "type": "way",
      "id": 49134267,
      "center": {
        "lat": 40.7965235,
        "lon": -73.0654545
      },
      "tags": {
        "leisure": "golf_course",
        "name": "Holbrook Country Club"
      }
    },
    {
      "type": "way",
      "id": 49169072,
      "center": {
        "lat": 40.7481053,
        "lon": -72.9510267
      },
      "tags": {
        "leisure": "golf_course",
        "name": "Bellport Country Club"
      }
    },
    {
      "type": "way",
      "id": 49178710,
      "center": {
        "lat": 40.7532576,
        "lon": -73.0993891
      },
      "tags": {
        "leisure": "golf_course",
        "name": "Island Hills Country Club"
      }
    },
    {
      "type": "way",
      "id": 49178716,
      "center": {
        "lat": 40.7260262,
        "lon": -73.1002433
      },
      "tags": {
        "leisure": "golf_course",
        "name": "West Sayville Golf Course"
      }
    },
    {
      "type": "way",
      "id": 49207716,
      "center": {
        "lat": 40.7439334,
        "lon": -73.3899157
      },
      "tags": {
        "access": "private",
        "addr:city": "East Farmingdale",
        "addr:housenumber": "1",
        "addr:postcode": "11787",
        "addr:street": "Long Island Avenue",
        "leisure": "golf_course",
        "name": "Colonial Springs Golf Club",
        "operator": "Colonial Springs Golf Course, Inc.",
        "phone": "+1-631-643-1050",
        "website": "https://www.colonialspringsgolf.com/",
        "wheelchair": "yes"
      }
    },
    {
      "type": "way",
      "id": 49305066,
      "center": {
        "lat": 40.9469005,
        "lon": -72.9494307
      },
      "tags": {
        "leisure": "golf_course",
        "name": "Tall Tree Golf Course"
      }
    },
    {
      "type": "way",
      "id": 49415053,
      "center": {
        "lat": 40.8852507,
        "lon": -73.208327
      },
      "tags": {
        "leisure": "golf_course",
        "name": "Smithtown Landing Golf Course"
      }
    },
    {
      "type": "way",
      "id": 49415127,
      "center": {
        "lat": 40.9203563,
        "lon": -73.3041323
      },
      "tags": {
        "leisure": "golf_course",
        "name": "Indian Hills Country Club"
      }
    },
    {
      "type": "way",
      "id": 49415135,
      "center": {
        "lat": 40.9185006,
        "lon": -73.3264741
      },
      "tags": {
        "leisure": "golf_course",
        "name": "Crab Meadow Golf Course"
      }
    },
    {
      "type": "way",
      "id": 49533760,
      "center": {
        "lat": 40.8721274,
        "lon": -72.962611
      },
      "tags": {
        "leisure": "golf_course",
        "name": "Spring Lake Golf Club"
      }
    },
    {
      "type": "way",
      "id": 49714012,
      "center": {
        "lat": 40.8604635,
        "lon": -72.9258553
      },
      "tags": {
        "leisure": "golf_course",
        "name": "Middle Island Country Club"
      }
    },
    {
      "type": "way",
      "id": 49857509,
      "center": {
        "lat": 40.9602912,
        "lon": -73.0547539
      },
      "tags": {
        "addr:city": "Port Jefferson",
        "addr:housenumber": "44",
        "addr:postcode": "11777",
        "addr:state": "NY",
        "addr:street": "Fairway Drive",
        "leisure": "golf_course",
        "name": "Port Jefferson Country Club",
        "phone": "+1-631-285-1814",
        "website": "https://portjeffcc.com/"
      }
    },
    {
      "type": "way",
      "id": 49929700,
      "center": {
        "lat": 40.8355408,
        "lon": -73.6434914
      },
      "tags": {
        "leisure": "golf_course",
        "name": "North Shore Country Club"
      }
    },
    {
      "type": "way",
      "id": 49951005,
      "center": {
        "lat": 40.8781988,
        "lon": -73.4434208
      },
      "tags": {
        "leisure": "golf_course",
        "name": "Huntington Country Club"
      }
    },
    {
      "type": "way",
      "id": 49978720,
      "center": {
        "lat": 40.8889662,
        "lon": -73.3901714
      },
      "tags": {
        "addr:city": "Huntington",
        "addr:housenumber": "15",
        "addr:postcode": "11743",
        "addr:state": "NY",
        "addr:street": "Washington Drive",
        "leisure": "golf_course",
        "name": "Huntington Crescent Club"
      }
    },
    {
      "type": "way",
      "id": 59209307,
      "center": {
        "lat": 41.12962,
        "lon": -74.1021442
      },
      "tags": {
        "leisure": "golf_course",
        "name": "Spook Rock Municipal Golf Course"
      }
    },
    {
      "type": "way",
      "id": 59213948,
      "center": {
        "lat": 41.1371919,
        "lon": -74.0498273
      },
      "tags": {
        "leisure": "golf_course",
        "name": "New York Country Club"
      }
    },
    {
      "type": "way",
      "id": 59677410,
      "center": {
        "lat": 41.204516,
        "lon": -74.0281352
      },
      "tags": {
        "leisure": "golf_course",
        "name": "Phillip J. Rotella Memorial Golf Course"
      }
    },
    {
      "type": "way",
      "id": 60775752,
      "center": {
        "lat": 40.720657,
        "lon": -73.6683239
      },
      "tags": {
        "addr:city": "Garden City",
        "addr:housenumber": "206",
        "addr:postcode": "11530",
        "addr:state": "NY",
        "addr:street": "Stewart Avenue",
        "leisure": "golf_course",
        "name": "Garden City Country Club",
        "nysgissam:nysaddresspointid": "NASS274837"
      }
    },
    {
      "type": "way",
      "id": 60780383,
      "center": {
        "lat": 40.7176795,
        "lon": -73.6483096
      },
      "tags": {
        "addr:city": "Garden City",
        "addr:housenumber": "28",
        "addr:postcode": "11530",
        "addr:state": "NY",
        "addr:street": "Rockaway Avenue",
        "leisure": "golf_course",
        "name": "Cherry Valley Golf Course",
        "nysgissam:nysaddresspointid": "NASS249367",
        "website": "http://www.cherryvalleyclub.com/"
      }
    },
    {
      "type": "way",
      "id": 60925271,
      "center": {
        "lat": 40.7309707,
        "lon": -73.6451477
      },
      "tags": {
        "access": "private",
        "addr:city": "Garden City",
        "addr:housenumber": "315",
        "addr:postcode": "11530",
        "addr:state": "NY",
        "addr:street": "Stewart Avenue",
        "leisure": "golf_course",
        "name": "Garden City Golf Club",
        "nysgissam:nysaddresspointid": "NASS189393",
        "wikidata": "Q255354"
      }
    },
    {
      "type": "way",
      "id": 62197332,
      "center": {
        "lat": 40.7654071,
        "lon": -73.7132854
      },
      "tags": {
        "leisure": "golf_course",
        "name": "Lake Success Golf Club",
        "operator": "Incorporated Village of Lake Success"
      }
    },
    {
      "type": "way",
      "id": 62254087,
      "center": {
        "lat": 42.7893883,
        "lon": -73.8979793
      },
      "tags": {
        "addr:city": "Schenectady",
        "addr:housenumber": "400",
        "addr:postcode": "12304",
        "addr:state": "NY",
        "addr:street": "Oregon Avenue",
        "leisure": "golf_course",
        "name": "Schenectady Municipal Golf Course",
        "phone": "+1-518-382-5155"
      }
    },
    {
      "type": "way",
      "id": 62789709,
      "center": {
        "lat": 42.7665798,
        "lon": -73.7963053
      },
      "tags": {
        "addr:city": "Latham",
        "addr:housenumber": "30",
        "addr:postcode": "12110-1184",
        "addr:state": "NY",
        "addr:street": "Mill Road",
        "fax": "+1-518-783-7255",
        "leisure": "golf_course",
        "name": "Mill Road Acres Golf Course",
        "phone": "+1-518-785-4653",
        "sport": "golf",
        "url": "http://millroadacres.com/"
      }
    },
    {
      "type": "way",
      "id": 62789723,
      "center": {
        "lat": 42.7252982,
        "lon": -73.6381392
      },
      "tags": {
        "addr:city": "Troy",
        "addr:housenumber": "100",
        "addr:postcode": "12180",
        "addr:state": "NY",
        "addr:street": "Troy Country Club Road",
        "fax": "+1-581-274-0215",
        "landuse": "recreation_ground",
        "leisure": "golf_course",
        "name": "Country Club of Troy",
        "phone": "+1-518-274-1000",
        "sport": "golf",
        "website": "https://countrycluboftroy.com/"
      }
    },
    {
      "type": "way",
      "id": 62789762,
      "center": {
        "lat": 42.5873649,
        "lon": -73.5498789
      },
      "tags": {
        "addr:city": "Averill Park",
        "addr:country": "US",
        "addr:housenumber": "162",
        "addr:postcode": "12018",
        "addr:state": "NY",
        "addr:street": "Totem Lodge Road",
        "landuse": "recreation_ground",
        "leisure": "golf_course",
        "name": "Burden Lake Country Club",
        "phone": "+1-518-674-1770",
        "sport": "golf",
        "url": "http://www.blccgolf.com/",
        "website": "https://www.burdenlakecountryclub.com/"
      }
    },
    {
      "type": "way",
      "id": 62789897,
      "center": {
        "lat": 42.6815541,
        "lon": -73.7469175
      },
      "tags": {
        "leisure": "golf_course",
        "name": "Wolfert's Roost Country Club"
      }
    },
    {
      "type": "way",
      "id": 62791621,
      "center": {
        "lat": 42.7485403,
        "lon": -73.6659419
      },
      "tags": {
        "landuse": "recreation_ground",
        "leisure": "golf_course",
        "name": "Frear Park Municipal Golf Course"
      }
    },
    {
      "type": "way",
      "id": 65250014,
      "center": {
        "lat": 43.0244753,
        "lon": -76.4780321
      },
      "tags": {
        "addr:city": "Elbridge",
        "addr:housenumber": "354",
        "addr:postcode": "13060",
        "addr:state": "NY",
        "addr:street": "State Route 5",
        "leisure": "golf_course",
        "name": "Millstone Golf Course",
        "website": "https://millstonegolfcourse.com"
      }
    },
    {
      "type": "way",
      "id": 66345417,
      "center": {
        "lat": 42.9407154,
        "lon": -77.1381115
      },
      "tags": {
        "addr:city": "Clifton Springs",
        "addr:housenumber": "2721",
        "addr:postcode": "14432",
        "addr:state": "NY",
        "addr:street": "Hopewell Townline Road",
        "leisure": "golf_course",
        "name": "Clifton Springs Country Club",
        "phone": "+1-315-462-9694",
        "website": "https://www.cliftonspringscc.com/"
      }
    },
    {
      "type": "way",
      "id": 67722796,
      "center": {
        "lat": 42.7516069,
        "lon": -73.824427
      },
      "tags": {
        "addr:city": "Loudonville",
        "addr:housenumber": "802",
        "addr:postcode": "12211",
        "addr:state": "NY",
        "addr:street": "Albany-Shaker Road",
        "leisure": "golf_course",
        "name": "Shaker Ridge Country Club",
        "phone": "+1-581-869-0246",
        "sport": "golf",
        "url": "http://www.shakerridge.com/"
      }
    },
    {
      "type": "way",
      "id": 69701152,
      "center": {
        "lat": 40.5915483,
        "lon": -73.623289
      },
      "tags": {
        "leisure": "golf_course",
        "name": "Lido Golf Club"
      }
    },
    {
      "type": "way",
      "id": 69810385,
      "center": {
        "lat": 42.5598686,
        "lon": -76.336175
      },
      "tags": {
        "leisure": "golf_course",
        "name": "Stone Hedges Golf"
      }
    },
    {
      "type": "way",
      "id": 70031506,
      "center": {
        "lat": 42.7789643,
        "lon": -73.9174432
      },
      "tags": {
        "leisure": "golf_course",
        "name": "Schenectady Stadium Country Club",
        "source": "bing"
      }
    },
    {
      "type": "way",
      "id": 74581404,
      "center": {
        "lat": 40.9026322,
        "lon": -73.88499
      },
      "tags": {
        "barrier": "fence",
        "leisure": "golf_course",
        "note": "golf course outer relation"
      }
    },
    {
      "type": "way",
      "id": 74747490,
      "center": {
        "lat": 42.7208239,
        "lon": -73.7421364
      },
      "tags": {
        "addr:city": "Loudonville",
        "addr:housenumber": "17",
        "addr:postcode": "12211",
        "addr:state": "NY",
        "addr:street": "Schuyler Meadows Road",
        "fax": "+1-581-785-4039",
        "landuse": "recreation_ground",
        "leisure": "golf_course",
        "name": "Schuyler Meadows Club",
        "phone": "+1-518-785-8558",
        "url": "http://www.schuylermeadows.com/"
      }
    },
    {
      "type": "way",
      "id": 75000039,
      "center": {
        "lat": 40.9389116,
        "lon": -73.8707376
      },
      "tags": {
        "access": "yes",
        "addr:city": "Yonkers",
        "addr:housenumber": "1",
        "addr:postcode": "10701",
        "addr:state": "NY",
        "addr:street": "Wasylenko Ln",
        "fee": "yes",
        "leisure": "golf_course",
        "name": "Dunwoodie Golf Course",
        "operator": "Westchester County Parks",
        "phone": "+1-914-231-3490",
        "website": "https://golf.westchestergov.com/dunwoodie/"
      }
    },
    {
      "type": "way",
      "id": 79397883,
      "center": {
        "lat": 42.7607072,
        "lon": -73.8690228
      },
      "tags": {
        "leisure": "golf_course",
        "name": "Town of Colonie Golf Course: Blue Course",
        "operator": "Town of Colonie"
      }
    },
    {
      "type": "way",
      "id": 79397886,
      "center": {
        "lat": 42.7600901,
        "lon": -73.8730163
      },
      "tags": {
        "leisure": "golf_course",
        "name": "Town of Colonie Golf Course: White Course",
        "operator": "Town of Colonie"
      }
    },
    {
      "type": "way",
      "id": 79397888,
      "center": {
        "lat": 42.7643899,
        "lon": -73.8741051
      },
      "tags": {
        "leisure": "golf_course",
        "name": "Town of Colonie Golf Course: Red Course",
        "operator": "Town of Colonie"
      }
    },
    {
      "type": "way",
      "id": 79397890,
      "center": {
        "lat": 42.7603132,
        "lon": -73.8664405
      },
      "tags": {
        "leisure": "golf_course",
        "name": "Town of Colonie Golf Course: Green Course",
        "operator": "Town of Colonie"
      }
    },
    {
      "type": "way",
      "id": 83206441,
      "center": {
        "lat": 40.8206765,
        "lon": -73.6354694
      },
      "tags": {
        "leisure": "golf_course",
        "name": "Engineers Country Club",
        "wikidata": "Q5377915",
        "wikipedia": "en:Engineers Country Club"
      }
    },
    {
      "type": "way",
      "id": 83399984,
      "center": {
        "lat": 40.9556089,
        "lon": -72.8241007
      },
      "tags": {
        "leisure": "golf_course",
        "name": "The Rock Golf Club",
        "source": "Yahoo"
      }
    },
    {
      "type": "way",
      "id": 83735422,
      "center": {
        "lat": 40.9908992,
        "lon": -72.1671283
      },
      "tags": {
        "leisure": "golf_course",
        "name": "East Hampton Golf Club"
      }
    },
    {
      "type": "way",
      "id": 83840016,
      "center": {
        "lat": 40.7725168,
        "lon": -73.2853986
      },
      "tags": {
        "leisure": "golf_course"
      }
    },
    {
      "type": "way",
      "id": 87821733,
      "center": {
        "lat": 40.6211603,
        "lon": -73.7124393
      },
      "tags": {
        "addr:city": "Woodmere",
        "addr:postcode": "11598",
        "addr:street": "Meadow Drive",
        "leisure": "golf_course",
        "name": "The Woodmere Club",
        "phone": "+1-516-295-2500",
        "website": "https://www.woodmereclub.com/"
      }
    },
    {
      "type": "way",
      "id": 87821782,
      "center": {
        "lat": 40.622231,
        "lon": -73.7559095
      },
      "tags": {
        "addr:city": "Inwood",
        "addr:housenumber": "50",
        "addr:state": "NY",
        "addr:street": "peppe drive",
        "leisure": "golf_course",
        "name": "Inwood Country Club",
        "wikidata": "Q14706544"
      }
    },
    {
      "type": "way",
      "id": 88424064,
      "center": {
        "lat": 40.8496966,
        "lon": -73.522602
      },
      "tags": {
        "email": "hello@pinehollowclub.com",
        "leisure": "golf_course",
        "name": "Pine Hollow Country Club",
        "phone": "+1 516-922-0300",
        "website": "https://pinehollowclub.com/"
      }
    },
    {
      "type": "way",
      "id": 88440585,
      "center": {
        "lat": 40.8116777,
        "lon": -73.5535917
      },
      "tags": {
        "leisure": "golf_course"
      }
    },
    {
      "type": "way",
      "id": 88444197,
      "center": {
        "lat": 40.8457382,
        "lon": -73.622164
      },
      "tags": {
        "leisure": "golf_course",
        "name": "Glen Head Country Club"
      }
    },
    {
      "type": "way",
      "id": 88823653,
      "center": {
        "lat": 40.7052904,
        "lon": -73.3159695
      },
      "tags": {
        "leisure": "golf_course",
        "name": "Sumpwams Creek Golf Course"
      }
    },
    {
      "type": "way",
      "id": 89579393,
      "center": {
        "lat": 42.9914985,
        "lon": -77.392587
      },
      "tags": {
        "addr:city": "Victor",
        "addr:housenumber": "929",
        "addr:postcode": "14564",
        "addr:state": "NY",
        "addr:street": "Lynaugh Road",
        "leisure": "golf_course",
        "name": "Ravenwood Golf Club",
        "phone": "+1 585-924-5100",
        "source": "Bing",
        "website": "https://www.ravenwoodgolf.com/"
      }
    },
    {
      "type": "way",
      "id": 90746338,
      "center": {
        "lat": 42.9286545,
        "lon": -78.7101807
      },
      "tags": {
        "leisure": "golf_course",
        "name": "Diamond Hawk Golf Course"
      }
    },
    {
      "type": "way",
      "id": 90756677,
      "center": {
        "lat": 42.956768,
        "lon": -78.8088497
      },
      "tags": {
        "addr:city": "Amherst",
        "addr:housenumber": "3781",
        "addr:postcode": "14226",
        "addr:state": "NY",
        "addr:street": "Main Street",
        "leisure": "golf_course",
        "name": "Grover Cleveland Golf Course",
        "nysgissam:nysaddresspointid": "ERIE346413",
        "old_name": "The Country Club of Buffalo",
        "phone": "+1 716 836 7398",
        "website": "http://www2.erie.gov/parks/index.php?q=grover-cleveland-golf-course-0",
        "wikidata": "Q5611525",
        "wikipedia": "en:Grover Cleveland Golf Course"
      }
    },
    {
      "type": "way",
      "id": 90852187,
      "center": {
        "lat": 42.6454224,
        "lon": -73.8189851
      },
      "tags": {
        "leisure": "golf_course",
        "name": "Capital Hills at Albany",
        "source": "bing- approx- please update"
      }
    },
    {
      "type": "way",
      "id": 90852198,
      "center": {
        "lat": 42.6391522,
        "lon": -73.8163452
      },
      "tags": {
        "leisure": "golf_course",
        "name": "Normanside Country Club"
      }
    },
    {
      "type": "way",
      "id": 91198824,
      "center": {
        "lat": 42.9417297,
        "lon": -78.6011479
      },
      "tags": {
        "leisure": "golf_course",
        "name": "Fox Valley Country Club"
      }
    },
    {
      "type": "way",
      "id": 93605350,
      "center": {
        "lat": 40.6595553,
        "lon": -73.4383972
      },
      "tags": {
        "leisure": "golf_course",
        "name": "Peninsula Golf Club"
      }
    },
    {
      "type": "way",
      "id": 93788342,
      "center": {
        "lat": 43.0279143,
        "lon": -78.9085081
      },
      "tags": {
        "leisure": "golf_course",
        "name": "River Oaks Golf Club"
      }
    },
    {
      "type": "way",
      "id": 94255374,
      "center": {
        "lat": 43.3501897,
        "lon": -73.6709082
      },
      "tags": {
        "addr:city": "Queensbury",
        "addr:housenumber": "211",
        "addr:postcode": "12804",
        "addr:state": "NY",
        "addr:street": "Round Pond Road",
        "leisure": "golf_course",
        "name": "Glens Falls Country Club",
        "nysgissam:nysaddresspointid": "WARR028563"
      }
    },
    {
      "type": "way",
      "id": 94513820,
      "center": {
        "lat": 40.7751469,
        "lon": -73.1939115
      },
      "tags": {
        "leisure": "golf_course"
      }
    },
    {
      "type": "way",
      "id": 94895734,
      "center": {
        "lat": 40.7926718,
        "lon": -73.5812571
      },
      "tags": {
        "leisure": "golf_course",
        "name": "Glen Oaks Club"
      }
    },
    {
      "type": "way",
      "id": 94895737,
      "center": {
        "lat": 40.843396,
        "lon": -73.5916836
      },
      "tags": {
        "leisure": "golf_course",
        "name": "Brookville Country Club"
      }
    },
    {
      "type": "way",
      "id": 95602017,
      "center": {
        "lat": 42.8966579,
        "lon": -78.3951874
      },
      "tags": {
        "leisure": "golf_course",
        "name": "Chestnut Hill Country Club"
      }
    },
    {
      "type": "way",
      "id": 96018891,
      "center": {
        "lat": 41.0416967,
        "lon": -73.712645
      },
      "tags": {
        "addr:city": "Purchase",
        "addr:housenumber": "3100",
        "addr:postcode": "10577",
        "addr:state": "NY",
        "addr:street": "Purchase Street",
        "leisure": "golf_course",
        "name": "Old Oaks Country Club",
        "nysgissam:nysaddresspointid": "WEST208963",
        "phone": "+1-914-683-6000",
        "website": "https://www.oldoakscc.org/"
      }
    },
    {
      "type": "way",
      "id": 99686936,
      "center": {
        "lat": 43.1338028,
        "lon": -77.7017565
      },
      "tags": {
        "addr:city": "Rochester",
        "addr:housenumber": "891",
        "addr:postcode": "14624",
        "addr:state": "NY",
        "addr:street": "Pixley Road",
        "leisure": "golf_course",
        "name": "Brook-Lea Country Club",
        "phone": "+1 585 247 3242",
        "website": "https://brookleacountryclub.com/"
      }
    },
    {
      "type": "way",
      "id": 103265502,
      "center": {
        "lat": 43.1175897,
        "lon": -77.4665574
      },
      "tags": {
        "addr:city": "Penfield",
        "addr:housenumber": "2387",
        "addr:postcode": "14526",
        "addr:state": "NY",
        "addr:street": "Baird Road",
        "leisure": "golf_course",
        "name": "Midvale Country Club",
        "phone": "+1 585-586-7100",
        "website": "https://www.midvalecc.com/"
      }
    },
    {
      "type": "way",
      "id": 103892940,
      "center": {
        "lat": 42.8228692,
        "lon": -78.5931061
      },
      "tags": {
        "leisure": "golf_course",
        "name": "Elma Meadows Golf Course"
      }
    },
    {
      "type": "way",
      "id": 105201931,
      "center": {
        "lat": 43.2086743,
        "lon": -78.5292575
      },
      "tags": {
        "access": "permissive",
        "leisure": "golf_course",
        "name": "Niagara-Orleans County Club"
      }
    },
    {
      "type": "way",
      "id": 108252891,
      "center": {
        "lat": 43.0237969,
        "lon": -76.1899385
      },
      "tags": {
        "leisure": "golf_course",
        "name": "Bellevue Golf and Country Club",
        "source": "bing approx"
      }
    },
    {
      "type": "way",
      "id": 108629005,
      "center": {
        "lat": 42.4557707,
        "lon": -76.5063281
      },
      "tags": {
        "addr:city": "Ithaca",
        "addr:housenumber": "10",
        "addr:postcode": "14850",
        "addr:state": "NY",
        "addr:street": "Pier Road",
        "leisure": "golf_course",
        "name": "Newman Municipal Golf Course",
        "phone": "+1-607-273-6262",
        "source": "bing",
        "url": "http://www.ci.ithaca.ny.us/index.asp?Type=B_BASIC&SEC={31CF9FD0-EAD4-47DE-AF38-AAD48021D575}",
        "website": "http://www.newmangolfcourse.com/"
      }
    },
    {
      "type": "way",
      "id": 109338620,
      "center": {
        "lat": 42.91907,
        "lon": -78.6411727
      },
      "tags": {
        "leisure": "golf_course",
        "name": "Driving Range"
      }
    },
    {
      "type": "way",
      "id": 113105921,
      "center": {
        "lat": 42.3493191,
        "lon": -76.8753598
      },
      "tags": {
        "leisure": "golf_course"
      }
    },
    {
      "type": "way",
      "id": 113503706,
      "center": {
        "lat": 42.9507566,
        "lon": -78.5843527
      },
      "tags": {
        "leisure": "golf_course",
        "name": "Buffalo Tournament Club",
        "operator": "Buffalo Tournament Club"
      }
    },
    {
      "type": "way",
      "id": 118135148,
      "center": {
        "lat": 43.0600432,
        "lon": -73.7441901
      },
      "tags": {
        "leisure": "golf_course",
        "name": "Saratoga National Golf Course"
      }
    },
    {
      "type": "way",
      "id": 121854129,
      "center": {
        "lat": 42.7625366,
        "lon": -73.6909728
      },
      "tags": {
        "leisure": "golf_course",
        "name": "Van Schaick Island Country Club",
        "source": "Bing"
      }
    },
    {
      "type": "way",
      "id": 121856575,
      "center": {
        "lat": 43.0979044,
        "lon": -73.5319881
      },
      "tags": {
        "leisure": "golf_course",
        "name": "Battenkill Country Club",
        "source": "Bing"
      }
    },
    {
      "type": "way",
      "id": 121856580,
      "center": {
        "lat": 43.1127872,
        "lon": -73.5386501
      },
      "tags": {
        "leisure": "golf_course",
        "name": "Windy Hills Golf Course",
        "source": "Bing"
      }
    },
    {
      "type": "way",
      "id": 121858003,
      "center": {
        "lat": 44.1791863,
        "lon": -73.4414517
      },
      "tags": {
        "leisure": "golf_course",
        "name": "Westport Country Club",
        "source": "Bing"
      }
    },
    {
      "type": "way",
      "id": 122734558,
      "center": {
        "lat": 40.9988297,
        "lon": -73.7689114
      },
      "tags": {
        "leisure": "golf_course",
        "name": "Fenway Golf Club"
      }
    },
    {
      "type": "way",
      "id": 122734578,
      "center": {
        "lat": 40.9691452,
        "lon": -73.7625363
      },
      "tags": {
        "leisure": "golf_course",
        "name": "Quaker Ridge Golf Club",
        "wikidata": "Q7268563"
      }
    },
    {
      "type": "way",
      "id": 122734591,
      "center": {
        "lat": 40.9624585,
        "lon": -73.7538567
      },
      "tags": {
        "leisure": "golf_course",
        "name": "Winged Foot Golf Club",
        "wikidata": "Q8025167"
      }
    },
    {
      "type": "way",
      "id": 122734665,
      "center": {
        "lat": 40.9537892,
        "lon": -73.7668067
      },
      "tags": {
        "leisure": "golf_course",
        "name": "Bonnie Briar Country Club",
        "wikidata": "Q19460607"
      }
    },
    {
      "type": "way",
      "id": 122734824,
      "center": {
        "lat": 40.9699524,
        "lon": -73.8124719
      },
      "tags": {
        "leisure": "golf_course",
        "name": "Leewood Golf Club"
      }
    },
    {
      "type": "way",
      "id": 122734825,
      "center": {
        "lat": 40.9685176,
        "lon": -73.8030484
      },
      "tags": {
        "leisure": "golf_course",
        "name": "Lake Isle Country Club"
      }
    },
    {
      "type": "way",
      "id": 122734959,
      "center": {
        "lat": 40.9413004,
        "lon": -73.8106372
      },
      "tags": {
        "leisure": "golf_course",
        "name": "Siwanoy Country Club",
        "wikidata": "Q7532535"
      }
    },
    {
      "type": "way",
      "id": 122736840,
      "center": {
        "lat": 41.0109746,
        "lon": -73.8019185
      },
      "tags": {
        "leisure": "golf_course",
        "name": "Scarsdale Country Club"
      }
    },
    {
      "type": "way",
      "id": 122737510,
      "center": {
        "lat": 41.0104132,
        "lon": -73.819293
      },
      "tags": {
        "leisure": "golf_course",
        "name": "Sunningdale Country Club"
      }
    },
    {
      "type": "way",
      "id": 122737511,
      "center": {
        "lat": 41.0075571,
        "lon": -73.739178
      },
      "tags": {
        "addr:city": "White Plains",
        "addr:housenumber": "401",
        "addr:postcode": "10605",
        "addr:street": "Ridgeway Road",
        "leisure": "golf_course",
        "name": "Westchester Hills Golf Club",
        "phone": "+1-914-948-5020",
        "website": "https://www.westchesterhills.org/"
      }
    },
    {
      "type": "way",
      "id": 122737551,
      "center": {
        "lat": 41.0077413,
        "lon": -73.7239148
      },
      "tags": {
        "addr:city": "White Plains",
        "addr:housenumber": "1128",
        "addr:postcode": "10605",
        "addr:state": "NY",
        "addr:street": "North Street",
        "leisure": "golf_course",
        "name": "Maple Moor Golf Course",
        "nysgissam:nysaddresspointid": "WEST215209",
        "phone": "+1-914-995-9200",
        "website": "https://golf.westchestergov.com/maple-moor-golf-course"
      }
    },
    {
      "type": "way",
      "id": 122752830,
      "center": {
        "lat": 40.9890314,
        "lon": -73.7027346
      },
      "tags": {
        "leisure": "golf_course",
        "name": "Harrison Meadows Country Club",
        "operator": "Troon Golf"
      }
    },
    {
      "type": "way",
      "id": 122853432,
      "center": {
        "lat": 40.9839367,
        "lon": -73.7583748
      },
      "tags": {
        "leisure": "golf_course",
        "name": "Saxon Woods Golf Course"
      }
    },
    {
      "type": "way",
      "id": 122887945,
      "center": {
        "lat": 40.9592246,
        "lon": -73.6975177
      },
      "tags": {
        "addr:city": "Rye",
        "addr:housenumber": "330",
        "addr:postcode": "10580",
        "addr:state": "NY",
        "addr:street": "Boston Post Rd Rye",
        "leisure": "golf_course",
        "name": "Rye Golf Club",
        "phone": "+1-914-835-3200",
        "website": "https://ryegolfclub.com/"
      }
    },
    {
      "type": "way",
      "id": 122888214,
      "center": {
        "lat": 40.9356224,
        "lon": -73.7395587
      },
      "tags": {
        "leisure": "golf_course",
        "name": "Hampshire Country Club"
      }
    },
    {
      "type": "way",
      "id": 124141461,
      "center": {
        "lat": 44.3451207,
        "lon": -74.3314626
      },
      "tags": {
        "leisure": "golf_course",
        "name": "Saranac Inn Golf and Country Club"
      }
    },
    {
      "type": "way",
      "id": 124473404,
      "center": {
        "lat": 43.0468896,
        "lon": -73.9942149
      },
      "tags": {
        "leisure": "golf_course",
        "name": "Galway Golf Course"
      }
    },
    {
      "type": "way",
      "id": 124473675,
      "center": {
        "lat": 43.0165867,
        "lon": -73.9545387
      },
      "tags": {
        "leisure": "golf_course",
        "name": "Pioneer Hills Golf Course"
      }
    },
    {
      "type": "way",
      "id": 124813362,
      "center": {
        "lat": 42.9616792,
        "lon": -74.2009389
      },
      "tags": {
        "leisure": "golf_course",
        "name": "Amsterdam Municipal Golf Course",
        "source": "Bing"
      }
    },
    {
      "type": "way",
      "id": 125421060,
      "center": {
        "lat": 43.0890161,
        "lon": -73.8030807
      },
      "tags": {
        "leisure": "golf_course",
        "name": "Saratoga Golf & Polo Club",
        "source": "Bing"
      }
    },
    {
      "type": "way",
      "id": 125428493,
      "center": {
        "lat": 43.0552579,
        "lon": -73.7965818
      },
      "tags": {
        "leisure": "golf_course",
        "name": "Saratoga Spa State Park Golf Course",
        "source": "Bing"
      }
    },
    {
      "type": "way",
      "id": 125832836,
      "center": {
        "lat": 43.0743966,
        "lon": -75.2428166
      },
      "tags": {
        "addr:city": "Utica",
        "addr:housenumber": "620",
        "addr:postcode": "13501",
        "addr:state": "NY",
        "addr:street": "Memorial Parkway",
        "leisure": "golf_course",
        "name": "Valley View Golf Course;Valley View",
        "source": "Bing"
      }
    },
    {
      "type": "way",
      "id": 126309897,
      "center": {
        "lat": 43.1041473,
        "lon": -75.2828173
      },
      "tags": {
        "leisure": "golf_course",
        "name": "Twin Ponds Golf & Country Club",
        "source": "Bing"
      }
    },
    {
      "type": "way",
      "id": 126582325,
      "center": {
        "lat": 41.7812413,
        "lon": -74.1310983
      },
      "tags": {
        "leisure": "golf_course",
        "name": "Mohonk Golf Course",
        "source": "Bing",
        "sport": "golf",
        "website": "https://www.mohonk.com/golf"
      }
    },
    {
      "type": "way",
      "id": 126583095,
      "center": {
        "lat": 42.1235844,
        "lon": -77.0117305
      },
      "tags": {
        "leisure": "golf_course",
        "name": "Corning Country Club",
        "source": "Bing"
      }
    },
    {
      "type": "way",
      "id": 129079557,
      "center": {
        "lat": 42.6779762,
        "lon": -77.8372384
      },
      "tags": {
        "leisure": "golf_course",
        "name": "Sonyea Golf Course"
      }
    },
    {
      "type": "way",
      "id": 130727643,
      "center": {
        "lat": 43.0872679,
        "lon": -77.5611474
      },
      "tags": {
        "addr:city": "Pittsford",
        "addr:housenumber": "2000",
        "addr:postcode": "14534",
        "addr:state": "NY",
        "addr:street": "Jefferson Road",
        "leisure": "golf_course",
        "name": "Locust Hill Country Club",
        "operator": "Locust Hill Country Club",
        "phone": "+1 888-751-3515",
        "start_date": "1931",
        "website": "https://www.locusthill.org/",
        "wikidata": "Q6666132",
        "wikipedia": "en:Locust Hill Country Club"
      }
    },
    {
      "type": "way",
      "id": 133721899,
      "center": {
        "lat": 43.2093804,
        "lon": -77.7272862
      },
      "tags": {
        "addr:city": "Rochester",
        "addr:housenumber": "3717",
        "addr:postcode": "14626",
        "addr:state": "NY",
        "addr:street": "West Ridge Road",
        "leisure": "golf_course",
        "name": "Ridgemont Country Club",
        "phone": "+1 585-225-7650",
        "website": "https://www.rccgolf.com/"
      }
    },
    {
      "type": "way",
      "id": 133751946,
      "center": {
        "lat": 43.0510768,
        "lon": -77.3555963
      },
      "tags": {
        "addr:city": "Macedon",
        "addr:housenumber": "1148",
        "addr:postcode": "14502",
        "addr:state": "NY",
        "addr:street": "Wayneport Road",
        "leisure": "golf_course",
        "name": "Sycamore Golf Club",
        "phone": "+1-315-986-4455",
        "website": "https://www.sycamoregolfclub.com/"
      }
    },
    {
      "type": "way",
      "id": 133755457,
      "center": {
        "lat": 43.2618381,
        "lon": -77.6218018
      },
      "tags": {
        "addr:city": "Rochester",
        "addr:housenumber": "1165",
        "addr:postcode": "14612",
        "addr:state": "NY",
        "addr:street": "Greenleaf Road",
        "leisure": "golf_course",
        "name": "Lake Shore Country Club",
        "opening_hours": "Mo-Th 06:30-19:00; Fr-Su,PH 06:00-19:00",
        "phone": "+1 585-663-9100",
        "source": "Bing",
        "website": "https://www.lakeshore-cc.com/"
      }
    },
    {
      "type": "way",
      "id": 133756464,
      "center": {
        "lat": 42.9861325,
        "lon": -77.3810094
      },
      "tags": {
        "addr:city": "Victor",
        "addr:state": "NY",
        "leisure": "golf_course",
        "name": "Winding Creek Golf Course",
        "source": "Bing",
        "website": "https://www.victorny.org/AboutVictor/ThingsToDo/Recreation_Golf/WindingCreek/"
      }
    },
    {
      "type": "way",
      "id": 133887832,
      "center": {
        "lat": 42.3433675,
        "lon": -77.2960372
      },
      "tags": {
        "addr:city": "Bath",
        "addr:housenumber": "330",
        "addr:postcode": "14810",
        "addr:state": "NY",
        "addr:street": "May Street",
        "leisure": "golf_course",
        "name": "Bath Country Club",
        "phone": "+1-607-776-5043",
        "website": "https://www.bathcountryclub.net/"
      }
    },
    {
      "type": "way",
      "id": 134199656,
      "center": {
        "lat": 42.0166995,
        "lon": -76.3733505
      },
      "tags": {
        "leisure": "golf_course",
        "source": "Bing"
      }
    },
    {
      "type": "way",
      "id": 134203638,
      "center": {
        "lat": 43.0137583,
        "lon": -78.7045461
      },
      "tags": {
        "leisure": "golf_course",
        "name": "Transit Valley County Club"
      }
    },
    {
      "type": "way",
      "id": 134221122,
      "center": {
        "lat": 43.2369062,
        "lon": -77.9892433
      },
      "tags": {
        "leisure": "golf_course"
      }
    },
    {
      "type": "way",
      "id": 134221123,
      "center": {
        "lat": 43.3466429,
        "lon": -77.9503404
      },
      "tags": {
        "leisure": "golf_course"
      }
    },
    {
      "type": "way",
      "id": 134221124,
      "center": {
        "lat": 43.2378377,
        "lon": -78.0011133
      },
      "tags": {
        "leisure": "golf_course"
      }
    },
    {
      "type": "way",
      "id": 134221125,
      "center": {
        "lat": 43.2469705,
        "lon": -77.3970124
      },
      "tags": {
        "addr:city": "Webster",
        "addr:housenumber": "440",
        "addr:postcode": "14580",
        "addr:state": "NY",
        "addr:street": "Salt Road",
        "leisure": "golf_course",
        "name": "Webster Golf Course",
        "phone": "+1 585-265-1920",
        "website": "https://www.webstergolf.com/"
      }
    },
    {
      "type": "way",
      "id": 134221127,
      "center": {
        "lat": 43.1099372,
        "lon": -77.9059698
      },
      "tags": {
        "addr:city": "Churchville",
        "addr:housenumber": "643",
        "addr:postcode": "14428",
        "addr:state": "NY",
        "addr:street": "Kendall Road",
        "leisure": "golf_course",
        "name": "Churchville West Golf Course",
        "website": "https://monroecountyparksgolf.com/churchville/"
      }
    },
    {
      "type": "way",
      "id": 134221139,
      "center": {
        "lat": 43.2328823,
        "lon": -77.571926
      },
      "tags": {
        "addr:city": "Rochester",
        "addr:housenumber": "1200",
        "addr:postcode": "14617",
        "addr:state": "NY",
        "addr:street": "North Kings Highway",
        "leisure": "golf_course",
        "name": "Durand Eastman Golf Course",
        "phone": "+1 585-266-0110",
        "source": "Bing",
        "website": "https://monroecountyparksgolf.com/durand-eastman/"
      }
    },
    {
      "type": "way",
      "id": 134221663,
      "center": {
        "lat": 43.0383479,
        "lon": -77.8286665
      },
      "tags": {
        "addr:city": "Churchville",
        "addr:housenumber": "128",
        "addr:postcode": "14428",
        "addr:state": "NY",
        "addr:street": "Cedars Avenue",
        "leisure": "golf_course",
        "name": "Mill Creek Golf Club",
        "phone": "+1-585-889-4110",
        "website": "https://www.millcreekgolf.com/"
      }
    },
    {
      "type": "way",
      "id": 134225187,
      "center": {
        "lat": 43.2659537,
        "lon": -77.6277635
      },
      "tags": {
        "addr:city": "Rochester",
        "addr:housenumber": "1165",
        "addr:postcode": "14612",
        "addr:state": "NY",
        "addr:street": "Greenleaf Road",
        "leisure": "golf_course",
        "name": "Shore Acres Executive Course",
        "opening_hours": "Mo-Th 06:30-19:00; Sa,Su,PH 06:00-19:00"
      }
    },
    {
      "type": "way",
      "id": 134225188,
      "center": {
        "lat": 43.0369257,
        "lon": -77.7235768
      },
      "tags": {
        "addr:city": "West Henrietta",
        "addr:housenumber": "520",
        "addr:postcode": "14586",
        "addr:state": "NY",
        "addr:street": "Scottsville",
        "leisure": "golf_course",
        "name": "Riverton Oaks Municipal Golf Course",
        "phone": "+1-585-334-6196",
        "source": "Bing",
        "website": "https://www.henrietta.org/community/page/riverton-oaks-municipal-golf-course"
      }
    },
    {
      "type": "way",
      "id": 134225189,
      "center": {
        "lat": 42.9820001,
        "lon": -77.6486108
      },
      "tags": {
        "addr:city": "Rush",
        "addr:housenumber": "1201",
        "addr:postcode": "14543",
        "addr:state": "NY",
        "addr:street": "Rush-West Rush Road",
        "leisure": "golf_course",
        "name": "Wild Wood Country Club",
        "phone": "+1 585-334-5860",
        "website": "https://golfwildwood.com/"
      }
    },
    {
      "type": "way",
      "id": 134225200,
      "center": {
        "lat": 42.9996706,
        "lon": -77.6852061
      },
      "tags": {
        "addr:city": "Rush",
        "addr:housenumber": "1025",
        "addr:postcode": "14543",
        "addr:state": "NY",
        "addr:street": "Rush-Scottsville Road",
        "leisure": "golf_course",
        "name": "Southern Meadows Golf Club",
        "phone": "+1 585-533-2440",
        "website": "https://www.southernmeadows.com/"
      }
    },
    {
      "type": "way",
      "id": 134225229,
      "center": {
        "lat": 43.1076506,
        "lon": -77.5256598
      },
      "tags": {
        "addr:city": "Rochester",
        "addr:housenumber": "4045",
        "addr:postcode": "14618",
        "addr:state": "NY",
        "addr:street": "East Avenue",
        "leisure": "golf_course",
        "name": "Irondequoit Country Club",
        "nysgissam:nysaddresspointid": "MONR252960",
        "phone": "+1 585-586-5880",
        "website": "https://www.irondequoitcc.org/"
      }
    },
    {
      "type": "way",
      "id": 134231344,
      "center": {
        "lat": 42.9849296,
        "lon": -77.5082956
      },
      "tags": {
        "addr:city": "Mendon",
        "addr:housenumber": "226",
        "addr:postcode": "14506",
        "addr:state": "NY",
        "addr:street": "Mendon-Ionia Rd",
        "leisure": "golf_course",
        "name": "Mendon Golf Club",
        "phone": "+1 585-624-3770"
      }
    },
    {
      "type": "way",
      "id": 134231345,
      "center": {
        "lat": 43.1051999,
        "lon": -77.4689836
      },
      "tags": {
        "addr:city": "Fairport",
        "addr:housenumber": "1208",
        "addr:postcode": "14450",
        "addr:state": "NY",
        "addr:street": "Fairport Road",
        "leisure": "golf_course",
        "name": "Island Valley Golf Course",
        "phone": "+1 585-586-1300",
        "source": "Bing",
        "website": "https://www.islandvalley.com/"
      }
    },
    {
      "type": "way",
      "id": 134231346,
      "center": {
        "lat": 43.1525735,
        "lon": -77.4450369
      },
      "tags": {
        "access": "private",
        "addr:city": "Penfield",
        "addr:housenumber": "1784",
        "addr:postcode": "14526",
        "addr:state": "NY",
        "addr:street": "Jackson Road",
        "golf:course": "18_hole",
        "leisure": "golf_course",
        "name": "Penfield Country Club",
        "phone": "+1 585-377-1240",
        "website": "https://www.penfieldcc.org/"
      }
    },
    {
      "type": "way",
      "id": 134231347,
      "center": {
        "lat": 43.093348,
        "lon": -77.4920964
      },
      "tags": {
        "addr:city": "Pittsford",
        "addr:housenumber": "155",
        "addr:postcode": "14534",
        "addr:state": "NY",
        "addr:street": "Golf Avenue",
        "leisure": "golf_course",
        "name": "Monroe Golf Club",
        "operator": "Monroe Golf Club",
        "website": "https://www.monroegolfclub.com/",
        "wikidata": "Q6902202"
      }
    },
    {
      "type": "way",
      "id": 134231348,
      "center": {
        "lat": 43.1177636,
        "lon": -77.4322934
      },
      "tags": {
        "addr:city": "Fairport",
        "addr:housenumber": "4344",
        "addr:postcode": "14450",
        "addr:state": "NY",
        "addr:street": "Nine Mile Point Road",
        "gnis:feature_id": "2615390",
        "leisure": "golf_course",
        "name": "Eagle Vale Golf Club",
        "website": "https://www.eaglevale.com/"
      }
    },
    {
      "type": "way",
      "id": 134231351,
      "center": {
        "lat": 42.9642323,
        "lon": -77.3995908
      },
      "tags": {
        "addr:city": "Victor",
        "addr:housenumber": "1450",
        "addr:postcode": "14564",
        "addr:state": "NY",
        "addr:street": "Brace Road",
        "leisure": "golf_course",
        "name": "Victor Hills - South Course",
        "phone": "+1 585-924-3480",
        "source": "Bing",
        "website": "https://www.victorhills.com/"
      }
    },
    {
      "type": "way",
      "id": 134231354,
      "center": {
        "lat": 43.1470373,
        "lon": -77.4697633
      },
      "tags": {
        "addr:city": "Penfield",
        "addr:housenumber": "1850",
        "addr:postcode": "14526",
        "addr:state": "NY",
        "addr:street": "Five Mile Line Road",
        "leisure": "golf_course",
        "name": "Shadow Lake Championship Golf Course",
        "nysgissam:nysaddresspointid": "MONR014493",
        "website": "http://www.rochestergolfcourses.com/our-courses.html"
      }
    },
    {
      "type": "way",
      "id": 134231364,
      "center": {
        "lat": 43.0452562,
        "lon": -77.4554971
      },
      "tags": {
        "addr:city": "Fairport",
        "addr:housenumber": "199",
        "addr:postcode": "14450",
        "addr:state": "NY",
        "addr:street": "Woodcliff Drive",
        "leisure": "golf_course",
        "name": "The Links at Woodcliff",
        "operator": "Woodcliff Hotel & Resort",
        "source": "survey;local_knowledge;aerial_imagery;streetlevel_imagery",
        "website": "https://woodcliffgolf.com/"
      }
    },
    {
      "type": "way",
      "id": 134231378,
      "center": {
        "lat": 43.2484312,
        "lon": -77.8659523
      },
      "tags": {
        "addr:city": "Brockport",
        "addr:housenumber": "100",
        "addr:postcode": "14420",
        "addr:state": "NY",
        "addr:street": "Craig Hill Dr",
        "leisure": "golf_course",
        "name": "Deerfield Country Club",
        "phone": "+1-585-392-3443",
        "source": "Bing",
        "website": "https://www.deerfieldcc.com/"
      }
    },
    {
      "type": "way",
      "id": 134368850,
      "center": {
        "lat": 42.9070706,
        "lon": -76.5262617
      },
      "tags": {
        "leisure": "golf_course"
      }
    },
    {
      "type": "way",
      "id": 134368853,
      "center": {
        "lat": 42.9013688,
        "lon": -76.5190472
      },
      "tags": {
        "leisure": "golf_course"
      }
    },
    {
      "type": "way",
      "id": 134370022,
      "center": {
        "lat": 43.0336138,
        "lon": -76.0377561
      },
      "tags": {
        "leisure": "golf_course",
        "name": "Onondaga Country Club"
      }
    },
    {
      "type": "way",
      "id": 134370023,
      "center": {
        "lat": 42.93235,
        "lon": -76.4408808
      },
      "tags": {
        "leisure": "golf_course",
        "name": "Skaneateles Country Club",
        "website": "https://www.skaneatelescc.com/golf"
      }
    },
    {
      "type": "way",
      "id": 134370837,
      "center": {
        "lat": 43.033485,
        "lon": -76.2655281
      },
      "tags": {
        "addr:city": "Camillus",
        "addr:housenumber": "100",
        "addr:postcode": "13031",
        "addr:state": "NY",
        "addr:street": "Golfview Drive",
        "leisure": "golf_course",
        "name": "Westvale Golf Club",
        "phone": "+1 315-487-0130"
      }
    },
    {
      "type": "way",
      "id": 134373836,
      "center": {
        "lat": 43.0460266,
        "lon": -75.9662749
      },
      "tags": {
        "addr:city": "Fayetteville",
        "addr:housenumber": "7900",
        "addr:state": "NY",
        "addr:street": "Green Lakes Road",
        "leisure": "golf_course",
        "name": "Green Lakes State Park Golf Course",
        "phone": "+1-315-637-4653",
        "sport": "golf",
        "website": "https://parks.ny.gov/golf/14/details.aspx"
      }
    },
    {
      "type": "way",
      "id": 134374486,
      "center": {
        "lat": 43.0238985,
        "lon": -76.0969423
      },
      "tags": {
        "leisure": "golf_course",
        "name": "Drumlins East",
        "website": "https://www.tecumsehclub.com/"
      }
    },
    {
      "type": "way",
      "id": 134374499,
      "center": {
        "lat": 43.0159513,
        "lon": -76.1047933
      },
      "tags": {
        "leisure": "golf_course",
        "name": "Drumlins Country Club"
      }
    },
    {
      "type": "way",
      "id": 134376219,
      "center": {
        "lat": 43.0950949,
        "lon": -75.5338975
      },
      "tags": {
        "leisure": "golf_course",
        "name": "Atunyote at Turning Stone"
      }
    },
    {
      "type": "way",
      "id": 134376221,
      "center": {
        "lat": 43.0833349,
        "lon": -75.3063221
      },
      "tags": {
        "leisure": "golf_course",
        "name": "Yahnundasis Golf Club"
      }
    },
    {
      "type": "way",
      "id": 134378237,
      "center": {
        "lat": 43.162233,
        "lon": -75.2961503
      },
      "tags": {
        "addr:city": "Marcy",
        "addr:housenumber": "6315",
        "addr:postcode": "13403",
        "addr:state": "NY",
        "addr:street": "St Rt 291",
        "email": "info@crestwoodgolf.com",
        "leisure": "golf_course",
        "name": "Crestwood Golf Club",
        "phone": "+1-315-736-0478"
      }
    },
    {
      "type": "way",
      "id": 134379954,
      "center": {
        "lat": 44.2803553,
        "lon": -73.9647974
      },
      "tags": {
        "addr:city": "Lake Placid",
        "addr:housenumber": "88",
        "addr:postcode": "12946",
        "addr:state": "NY",
        "addr:street": "Morningside Dr",
        "leisure": "golf_course",
        "name": "Lake Placid Club Golf Courses",
        "source": "Bing"
      }
    },
    {
      "type": "way",
      "id": 134382363,
      "center": {
        "lat": 43.2615911,
        "lon": -73.6200283
      },
      "tags": {
        "comment": "closed in 2018",
        "leisure": "golf_course",
        "name": "Tee-Bird Country Club - North"
      }
    },
    {
      "type": "way",
      "id": 134390396,
      "center": {
        "lat": 42.8955422,
        "lon": -73.343112
      },
      "tags": {
        "addr:city": "Hoosick Falls",
        "addr:housenumber": "1",
        "addr:postcode": "12090",
        "addr:state": "NY",
        "addr:street": "Richmond Avenue",
        "leisure": "golf_course",
        "name": "Hoosick Falls Country Club",
        "nysgissam:nysaddresspointid": "RENS042125",
        "phone": "+1-518-686-4210",
        "website": "http://hoosickgolf.org/"
      }
    },
    {
      "type": "way",
      "id": 134394253,
      "center": {
        "lat": 42.1782903,
        "lon": -74.0155906
      },
      "tags": {
        "leisure": "golf_course",
        "name": "Rip Van Winkle Country Club",
        "source": "Bing",
        "sport": "golf"
      }
    },
    {
      "type": "way",
      "id": 134394254,
      "center": {
        "lat": 42.2401883,
        "lon": -73.8778886
      },
      "tags": {
        "addr:city": "Catskill",
        "addr:housenumber": "27",
        "addr:postcode": "12414",
        "addr:state": "NY",
        "addr:street": "Brooks Lane",
        "leisure": "golf_course",
        "name": "Catskill Golf Club",
        "nysgissam:nysaddresspointid": "GREE017902",
        "phone": "+1-518-943-0302",
        "source": "Bing",
        "sport": "golf",
        "website": "https://catskillgolfclub.com/"
      }
    },
    {
      "type": "way",
      "id": 134399650,
      "center": {
        "lat": 42.9715195,
        "lon": -77.8377509
      },
      "tags": {
        "addr:city": "Caledonia",
        "addr:housenumber": "303",
        "addr:postcode": "14423",
        "addr:state": "NY",
        "addr:street": "Park Place",
        "gnis:feature_id": "2598861",
        "leisure": "golf_course",
        "name": "Caledonia Country Club",
        "phone": "+1-585-538-9956",
        "website": "http://www.caledoniacc.com/"
      }
    },
    {
      "type": "way",
      "id": 134402125,
      "center": {
        "lat": 42.7106288,
        "lon": -78.8104775
      },
      "tags": {
        "leisure": "golf_course"
      }
    },
    {
      "type": "way",
      "id": 134406340,
      "center": {
        "lat": 43.1837514,
        "lon": -78.6600838
      },
      "tags": {
        "addr:city": "Lockport",
        "addr:housenumber": "717",
        "addr:postcode": "14094",
        "addr:state": "NY",
        "addr:street": "East Avenue",
        "leisure": "golf_course",
        "name": "Lockport Town & Country Club",
        "nysgissam:nysaddresspointid": "NIAG082101",
        "phone": "+1 716 433 5969",
        "website": "https://lockportcountryclub.com/"
      }
    },
    {
      "type": "way",
      "id": 134408796,
      "center": {
        "lat": 42.531583,
        "lon": -76.670664
      },
      "tags": {
        "leisure": "golf_course"
      }
    },
    {
      "type": "way",
      "id": 134410125,
      "center": {
        "lat": 42.0943061,
        "lon": -78.4166255
      },
      "tags": {
        "leisure": "golf_course"
      }
    },
    {
      "type": "way",
      "id": 134676325,
      "center": {
        "lat": 41.9249047,
        "lon": -75.1763374
      },
      "tags": {
        "leisure": "golf_course"
      }
    },
    {
      "type": "way",
      "id": 134677727,
      "center": {
        "lat": 41.3734702,
        "lon": -74.6701776
      },
      "tags": {
        "addr:city": "Port Jervis",
        "addr:housenumber": "87",
        "addr:postcode": "12771",
        "addr:state": "NY",
        "addr:street": "Neversink Drive",
        "leisure": "golf_course",
        "name": "The Lynx at River Bend Golf Club",
        "nysgissam:nysaddresspointid": "ORAN090963",
        "old_name": "Port Jervis Country Club",
        "phone": "+1 845 858 4653",
        "start_date": "1915",
        "website": "http://thelynxgolfclub.com/"
      }
    },
    {
      "type": "way",
      "id": 134678807,
      "center": {
        "lat": 41.8015337,
        "lon": -74.7654785
      },
      "tags": {
        "leisure": "golf_course",
        "name": "Sullivan Golf Course",
        "sport": "golf"
      }
    },
    {
      "type": "way",
      "id": 134678813,
      "center": {
        "lat": 41.757186,
        "lon": -74.6560777
      },
      "tags": {
        "leisure": "golf_course",
        "name": "Lochmor Golf Course",
        "sport": "golf"
      }
    },
    {
      "type": "way",
      "id": 134678826,
      "center": {
        "lat": 41.6669021,
        "lon": -74.6507758
      },
      "tags": {
        "leisure": "golf_course",
        "name": "Monster Golf Club",
        "operator": "Resorts World Catskills",
        "sport": "golf",
        "website": "https://rwcatskills.com/monster-golf-club/"
      }
    },
    {
      "type": "way",
      "id": 134678829,
      "center": {
        "lat": 41.7913206,
        "lon": -74.7226072
      },
      "tags": {
        "leisure": "golf_course",
        "name": "Grossinger Country Club",
        "sport": "golf"
      }
    },
    {
      "type": "way",
      "id": 134679768,
      "center": {
        "lat": 41.7072822,
        "lon": -74.4023543
      },
      "tags": {
        "leisure": "golf_course",
        "name": "Shawngunk Country Club",
        "sport": "golf",
        "website": "https://www.golflink.com/golf-courses/course.aspx?course=819245"
      }
    },
    {
      "type": "way",
      "id": 134683218,
      "center": {
        "lat": 41.8010768,
        "lon": -74.2276164
      },
      "tags": {
        "leisure": "golf_course",
        "name": "Inness Golf Course",
        "sport": "golf",
        "website": "https://www.rondoutgolfclub.com/"
      }
    },
    {
      "type": "way",
      "id": 134702993,
      "center": {
        "lat": 41.2510808,
        "lon": -74.366736
      },
      "tags": {
        "leisure": "golf_course",
        "name": "Warwick Valley Country Club"
      }
    },
    {
      "type": "way",
      "id": 134795625,
      "center": {
        "lat": 44.6412216,
        "lon": -73.4452343
      },
      "tags": {
        "leisure": "golf_course"
      }
    },
    {
      "type": "way",
      "id": 134795626,
      "center": {
        "lat": 44.6539208,
        "lon": -73.4505516
      },
      "tags": {
        "leisure": "golf_course",
        "name": "The Barracks Golf Course"
      }
    },
    {
      "type": "way",
      "id": 134799985,
      "center": {
        "lat": 42.1992403,
        "lon": -79.4687759
      },
      "tags": {
        "addr:city": "Chautauqua",
        "addr:housenumber": "4731",
        "addr:postcode": "14722",
        "addr:state": "NY",
        "addr:street": "West Lake Road",
        "leisure": "golf_course",
        "name": "Chautauqua Golf Club",
        "phone": "+1-716-357-6211",
        "website": "https://www.chq.org/things-to-do/recreation-and-fitness/chautauqua-golf-club/"
      }
    },
    {
      "type": "way",
      "id": 134800740,
      "center": {
        "lat": 42.5167057,
        "lon": -78.4303139
      },
      "tags": {
        "leisure": "golf_course"
      }
    },
    {
      "type": "way",
      "id": 134801722,
      "center": {
        "lat": 42.8016129,
        "lon": -77.7746136
      },
      "tags": {
        "addr:city": "Geneseo",
        "addr:housenumber": "4436",
        "addr:postcode": "14454",
        "addr:state": "NY",
        "addr:street": "Lakeville Road",
        "leisure": "golf_course",
        "name": "Livingston Country Club",
        "website": "https://www.livingstoncc.com/"
      }
    },
    {
      "type": "way",
      "id": 134812961,
      "center": {
        "lat": 42.3962149,
        "lon": -76.8934435
      },
      "tags": {
        "leisure": "golf_course"
      }
    },
    {
      "type": "way",
      "id": 134823099,
      "center": {
        "lat": 42.1327732,
        "lon": -77.9652392
      },
      "tags": {
        "addr:city": "Wellsville",
        "addr:housenumber": "3006",
        "addr:postcode": "14895",
        "addr:state": "NY",
        "addr:street": "Riverside Drive",
        "leisure": "golf_course",
        "name": "Wellsville Country Club",
        "phone": "+1 585 593 6114",
        "website": "https://www.wellsvillecc.com/"
      }
    },
    {
      "type": "way",
      "id": 134867388,
      "center": {
        "lat": 43.7391752,
        "lon": -74.7754357
      },
      "tags": {
        "leisure": "golf_course",
        "name": "Inlet Golf Club"
      }
    },
    {
      "type": "way",
      "id": 134932091,
      "center": {
        "lat": 44.9901327,
        "lon": -73.3863443
      },
      "tags": {
        "leisure": "golf_course",
        "name": "North Country Golf Club"
      }
    },
    {
      "type": "way",
      "id": 134932092,
      "center": {
        "lat": 44.4472854,
        "lon": -73.6748066
      },
      "tags": {
        "leisure": "golf_course"
      }
    },
    {
      "type": "way",
      "id": 134933547,
      "center": {
        "lat": 44.2361539,
        "lon": -76.0749366
      },
      "tags": {
        "addr:city": "Clayton",
        "addr:housenumber": "105",
        "addr:postcode": "13624",
        "addr:state": "NY",
        "addr:street": "State St.",
        "leisure": "golf_course",
        "name": "Clayton Country Club",
        "phone": "+1-315-686-4242",
        "website": "https://www.claytoncountryclub.com/"
      }
    },
    {
      "type": "way",
      "id": 134933549,
      "center": {
        "lat": 44.3404424,
        "lon": -75.9030994
      },
      "tags": {
        "leisure": "golf_course"
      }
    },
    {
      "type": "way",
      "id": 134935181,
      "center": {
        "lat": 43.9601184,
        "lon": -75.9348281
      },
      "tags": {
        "leisure": "golf_course"
      }
    },
    {
      "type": "way",
      "id": 134938070,
      "center": {
        "lat": 43.912482,
        "lon": -76.11395
      },
      "tags": {
        "leisure": "golf_course",
        "name": "Bedford Creek Golf Course"
      }
    },
    {
      "type": "way",
      "id": 134938071,
      "center": {
        "lat": 43.8225139,
        "lon": -76.0167382
      },
      "tags": {
        "addr:city": "Adams",
        "addr:housenumber": "10700",
        "addr:postcode": "13605",
        "addr:state": "NY",
        "addr:street": "US Route 11",
        "description": "Adams Country Club, a 9-hole golf course and restaurant in Adams, New York.",
        "leisure": "golf_course",
        "name": "Adams Country Club",
        "phone": "+1-315-232-4842",
        "website": "https://adamscountryclub.com/"
      }
    },
    {
      "type": "way",
      "id": 134940531,
      "center": {
        "lat": 43.4404332,
        "lon": -76.4959337
      },
      "tags": {
        "leisure": "golf_course"
      }
    },
    {
      "type": "way",
      "id": 135252911,
      "center": {
        "lat": 44.8205456,
        "lon": -74.2757985
      },
      "tags": {
        "addr:city": "Malone",
        "addr:housenumber": "79",
        "addr:postcode": "12953",
        "addr:state": "NY",
        "addr:street": "Golf Course Road",
        "leisure": "golf_course",
        "name": "Malone Golf Club (East Course)",
        "phone": "+1-518-483-2926",
        "website": "https://www.malonegolfclub.com/"
      }
    },
    {
      "type": "way",
      "id": 135258500,
      "center": {
        "lat": 43.1798265,
        "lon": -76.2690311
      },
      "tags": {
        "leisure": "golf_course"
      }
    },
    {
      "type": "way",
      "id": 135258504,
      "center": {
        "lat": 43.4350597,
        "lon": -76.4931027
      },
      "tags": {
        "leisure": "golf_course"
      }
    },
    {
      "type": "way",
      "id": 135258507,
      "center": {
        "lat": 43.1634882,
        "lon": -76.2642726
      },
      "tags": {
        "leisure": "golf_course",
        "name": "Timber Banks Country Club"
      }
    },
    {
      "type": "way",
      "id": 135258517,
      "center": {
        "lat": 43.1974273,
        "lon": -76.2947389
      },
      "tags": {
        "leisure": "golf_course",
        "name": "Radisson Greens"
      }
    },
    {
      "type": "way",
      "id": 135390679,
      "center": {
        "lat": 43.3607399,
        "lon": -76.4371244
      },
      "tags": {
        "communication:amateur_radio:pota": "US-2007",
        "leisure": "golf_course",
        "name": "Battle Island State Park Golf Course",
        "phone": "+1 315-593-3408",
        "ref": "5",
        "website": "https://parks.ny.gov/golf/battleisland/details.aspx"
      }
    },
    {
      "type": "way",
      "id": 135449964,
      "center": {
        "lat": 43.1969368,
        "lon": -76.0505583
      },
      "tags": {
        "leisure": "golf_course",
        "name": "Lakeshore Country Club",
        "website": "https://www.lakeshoreycc.com/golf"
      }
    },
    {
      "type": "way",
      "id": 135471867,
      "center": {
        "lat": 43.2018106,
        "lon": -77.8550445
      },
      "tags": {
        "addr:city": "Spencerport",
        "addr:housenumber": "355",
        "addr:postcode": "14559",
        "addr:state": "NY",
        "addr:street": "Washington Street",
        "leisure": "golf_course",
        "name": "Salmon Creek Country Club",
        "phone": "+1 585-352-4300",
        "source": "Bing",
        "website": "https://www.salmoncreekcountryclub.com/"
      }
    },
    {
      "type": "way",
      "id": 135471869,
      "center": {
        "lat": 43.0794338,
        "lon": -78.7333368
      },
      "tags": {
        "leisure": "golf_course",
        "name": "Oakwood Golf Course"
      }
    },
    {
      "type": "way",
      "id": 135471870,
      "center": {
        "lat": 43.2040777,
        "lon": -77.8675018
      },
      "tags": {
        "addr:city": "Spencerport",
        "addr:housenumber": "1189",
        "addr:postcode": "14559",
        "addr:state": "NY",
        "addr:street": "Ogden-Parma Town Line Road",
        "grassland": "meadow",
        "leisure": "golf_course",
        "name": "Pinewood Country Club",
        "phone": "+1 585-352-5314",
        "source": "Bing",
        "website": "https://pinewood.cc/"
      }
    },
    {
      "type": "way",
      "id": 135471871,
      "center": {
        "lat": 43.2022303,
        "lon": -77.8832938
      },
      "tags": {
        "addr:city": "Spencerport",
        "addr:housenumber": "655",
        "addr:postcode": "14559",
        "addr:state": "NY",
        "addr:street": "Gallup Road",
        "grassland": "meadow",
        "leisure": "golf_course",
        "name": "Arrowhead Golf Course & Marina",
        "phone": "+1 585-684-4653",
        "website": "https://www.golfatarrowhead.com/"
      }
    },
    {
      "type": "way",
      "id": 135508031,
      "center": {
        "lat": 41.6859009,
        "lon": -73.8873902
      },
      "tags": {
        "addr:city": "Poughkeepsie",
        "addr:housenumber": "12",
        "addr:postcode": "12604",
        "addr:state": "NY",
        "addr:street": "Raymond Ave",
        "leisure": "golf_course",
        "name": "Vassar Golf Course",
        "phone": "+1-845-473 - 9838",
        "sport": "golf",
        "website": "http://vassargolfcourse.com/default.html"
      }
    },
    {
      "type": "way",
      "id": 135509414,
      "center": {
        "lat": 42.0340295,
        "lon": -74.1080416
      },
      "tags": {
        "leisure": "golf_course",
        "name": "Woodstock Golf Club",
        "sport": "golf"
      }
    },
    {
      "type": "way",
      "id": 135567332,
      "center": {
        "lat": 41.9150975,
        "lon": -74.0396937
      },
      "tags": {
        "addr:city": "Kingston",
        "addr:housenumber": "404",
        "addr:postcode": "12401",
        "addr:street": "Stewart Lane",
        "leisure": "golf_course",
        "name": "Wiltwyck Golf Club",
        "phone": "+1-845-331-0700",
        "sport": "golf",
        "website": "https://www.wiltwyck.org/"
      }
    },
    {
      "type": "way",
      "id": 135568016,
      "center": {
        "lat": 41.9527844,
        "lon": -74.0091246
      },
      "tags": {
        "leisure": "golf_course",
        "name": "Green Acres Golf Club",
        "sport": "golf",
        "website": "https://www.golfnow.com/course-directory/new-york-golf-courses/kingston-golf-courses/green-acres-golf-club"
      }
    },
    {
      "type": "way",
      "id": 135578549,
      "center": {
        "lat": 41.2266366,
        "lon": -74.024424
      },
      "tags": {
        "leisure": "golf_course",
        "name": "Patriot Hills Golf Club"
      }
    },
    {
      "type": "way",
      "id": 135580102,
      "center": {
        "lat": 41.3898376,
        "lon": -73.9932366
      },
      "tags": {
        "leisure": "golf_course",
        "name": "West Point Golf Course"
      }
    },
    {
      "type": "way",
      "id": 135584386,
      "center": {
        "lat": 41.3735745,
        "lon": -73.9467192
      },
      "tags": {
        "leisure": "golf_course",
        "name": "Higlands Country Club"
      }
    },
    {
      "type": "way",
      "id": 135585751,
      "center": {
        "lat": 42.3058004,
        "lon": -74.2395917
      },
      "tags": {
        "addr:city": "Windham",
        "addr:housenumber": "36",
        "addr:postcode": "12496",
        "addr:street": "South Street",
        "leisure": "golf_course",
        "name": "Windham Country Club"
      }
    },
    {
      "type": "way",
      "id": 135703302,
      "center": {
        "lat": 42.1473949,
        "lon": -76.0158979
      },
      "tags": {
        "leisure": "golf_course",
        "name": "Endwell Greens"
      }
    },
    {
      "type": "way",
      "id": 135703303,
      "center": {
        "lat": 42.0879169,
        "lon": -76.0834747
      },
      "tags": {
        "addr:city": "Endicott",
        "addr:housenumber": "722",
        "addr:postcode": "13760",
        "addr:state": "NY",
        "addr:street": "West Main Street",
        "leisure": "golf_course",
        "name": "En-Joie Golf Club",
        "nysgissam:nysaddresspointid": "BROO115293",
        "phone": "+1-607-785-1661",
        "website": "https://enjoiegolf.com/"
      }
    },
    {
      "type": "way",
      "id": 135703305,
      "center": {
        "lat": 42.1239735,
        "lon": -76.0059031
      },
      "tags": {
        "addr:city": "Endwell",
        "addr:housenumber": "1401",
        "addr:postcode": "13760",
        "addr:state": "NY",
        "addr:street": "Robinson Hill Road",
        "leisure": "golf_course",
        "name": "Binghamton Country Club",
        "nysgissam:nysaddresspointid": "BROO083615",
        "phone": "+1-607-797-5828",
        "website": "https://www.binghamtoncountryclub.com/"
      }
    },
    {
      "type": "way",
      "id": 135706095,
      "center": {
        "lat": 42.184384,
        "lon": -76.3142004
      },
      "tags": {
        "leisure": "golf_course"
      }
    },
    {
      "type": "way",
      "id": 135831174,
      "center": {
        "lat": 42.9103001,
        "lon": -76.1870982
      },
      "tags": {
        "leisure": "golf_course",
        "name": "Orchard Vali"
      }
    },
    {
      "type": "way",
      "id": 135831175,
      "center": {
        "lat": 42.9050979,
        "lon": -76.5311967
      },
      "tags": {
        "leisure": "golf_course"
      }
    },
    {
      "type": "way",
      "id": 135831176,
      "center": {
        "lat": 42.8684058,
        "lon": -77.2545961
      },
      "tags": {
        "leisure": "golf_course",
        "name": "Canandaigua Country Club",
        "phone": "+1-585-394-4370",
        "website": "https://www.canandaiguacc.com/"
      }
    },
    {
      "type": "way",
      "id": 135831177,
      "center": {
        "lat": 42.7542008,
        "lon": -78.7392593
      },
      "tags": {
        "leisure": "golf_course",
        "name": "Orchard Park Country Club"
      }
    },
    {
      "type": "way",
      "id": 135831178,
      "center": {
        "lat": 42.8067013,
        "lon": -78.7061769
      },
      "tags": {
        "leisure": "golf_course",
        "name": "Harvest Hill Golf Club"
      }
    },
    {
      "type": "way",
      "id": 135911008,
      "center": {
        "lat": 42.1668869,
        "lon": -75.8701561
      },
      "tags": {
        "landuse": "recreation_ground",
        "leisure": "golf_course"
      }
    },
    {
      "type": "way",
      "id": 135911009,
      "center": {
        "lat": 42.5631212,
        "lon": -75.5402538
      },
      "tags": {
        "addr:city": "Norwich",
        "addr:housenumber": "261",
        "addr:postcode": "13815",
        "addr:state": "NY",
        "addr:street": "County Road 44",
        "leisure": "golf_course",
        "name": "Canasawacta Country Club",
        "nysgissam:nysaddresspointid": "CHEN009871"
      }
    },
    {
      "type": "way",
      "id": 135911010,
      "center": {
        "lat": 42.216534,
        "lon": -75.8433084
      },
      "tags": {
        "leisure": "golf_course",
        "name": "Chenango Valley State Park Golf Course",
        "website": "https://parks.ny.gov/golf-courses/20/details.aspx"
      }
    },
    {
      "type": "way",
      "id": 135911014,
      "center": {
        "lat": 42.4523137,
        "lon": -75.5973017
      },
      "tags": {
        "leisure": "golf_course"
      }
    },
    {
      "type": "way",
      "id": 135915871,
      "center": {
        "lat": 43.9585931,
        "lon": -75.8869729
      },
      "tags": {
        "addr:city": "Watertown",
        "addr:housenumber": "1",
        "addr:postcode": "13601",
        "addr:state": "NY",
        "addr:street": "Thompson Park",
        "leisure": "golf_course",
        "name": "Watertown Golf Club",
        "nysgissam:nysaddresspointid": "JEFF001797",
        "phone": "+1-315-782-4040",
        "website": "http://www.watertowngolfclubinc.com/"
      }
    },
    {
      "type": "way",
      "id": 135919323,
      "center": {
        "lat": 43.2717279,
        "lon": -75.6891088
      },
      "tags": {
        "leisure": "golf_course"
      }
    },
    {
      "type": "way",
      "id": 135920778,
      "center": {
        "lat": 43.2704607,
        "lon": -75.4383411
      },
      "tags": {
        "leisure": "golf_course"
      }
    },
    {
      "type": "way",
      "id": 135966313,
      "center": {
        "lat": 42.90782,
        "lon": -76.9671131
      },
      "tags": {
        "leisure": "golf_course",
        "source": "Bing"
      }
    },
    {
      "type": "way",
      "id": 135966314,
      "center": {
        "lat": 42.8766294,
        "lon": -78.0123003
      },
      "tags": {
        "addr:city": "Pavilion",
        "addr:state": "NY",
        "leisure": "golf_course",
        "name": "Davis Countryside Meadows",
        "phone": "+1-585-584-8390",
        "website": "https://www.dcmeadows.com/"
      }
    },
    {
      "type": "way",
      "id": 135968171,
      "center": {
        "lat": 44.3070791,
        "lon": -74.0067797
      },
      "tags": {
        "leisure": "golf_course",
        "name": "Whiteface Club & Resort Golf Course"
      }
    },
    {
      "type": "way",
      "id": 135968696,
      "center": {
        "lat": 41.0901892,
        "lon": -73.8459271
      },
      "tags": {
        "leisure": "golf_course"
      }
    },
    {
      "type": "way",
      "id": 135980392,
      "center": {
        "lat": 43.707812,
        "lon": -74.9972621
      },
      "tags": {
        "leisure": "golf_course",
        "source": "Bing"
      }
    },
    {
      "type": "way",
      "id": 135993347,
      "center": {
        "lat": 43.4733944,
        "lon": -74.4108151
      },
      "tags": {
        "addr:city": "Lake Pleasant",
        "addr:housenumber": "2537",
        "addr:postcode": "12108",
        "addr:state": "NY",
        "addr:street": "NY-8",
        "leisure": "golf_course",
        "name": "Lake Pleasant Golf Course"
      }
    },
    {
      "type": "way",
      "id": 136000004,
      "center": {
        "lat": 43.3014252,
        "lon": -73.8305641
      },
      "tags": {
        "leisure": "golf_course"
      }
    },
    {
      "type": "way",
      "id": 136015402,
      "center": {
        "lat": 43.8332221,
        "lon": -73.776374
      },
      "tags": {
        "leisure": "golf_course",
        "name": "Town of Schroon Lake Golf Club"
      }
    },
    {
      "type": "way",
      "id": 136018554,
      "center": {
        "lat": 41.5557415,
        "lon": -73.5965554
      },
      "tags": {
        "addr:city": "Pawling",
        "addr:housenumber": "135",
        "addr:postcode": "12564",
        "addr:state": "NY",
        "addr:street": "East Main Street",
        "leisure": "golf_course",
        "name": "Dutcher Golf Course",
        "nysgissam:nysaddresspointid": "DUTC053156",
        "phone": "+1-845-855-9845",
        "website": "https://www.pawling.org/Pages/PawlingNY_Recreation/golf"
      }
    },
    {
      "type": "way",
      "id": 136077347,
      "center": {
        "lat": 42.0851502,
        "lon": -78.4788036
      },
      "tags": {
        "leisure": "golf_course",
        "source": "Bing"
      }
    },
    {
      "type": "way",
      "id": 136094763,
      "center": {
        "lat": 42.1615197,
        "lon": -79.3867828
      },
      "tags": {
        "alt_name": "Bemus Point Golf Course",
        "leisure": "golf_course",
        "name": "Bemus Point Golf Club"
      }
    },
    {
      "type": "way",
      "id": 136094764,
      "center": {
        "lat": 42.1879916,
        "lon": -79.1669259
      },
      "tags": {
        "leisure": "golf_course",
        "name": "Breezewood Links",
        "source": "Bing"
      }
    },
    {
      "type": "way",
      "id": 136094765,
      "center": {
        "lat": 42.3411708,
        "lon": -79.3297277
      },
      "tags": {
        "leisure": "golf_course",
        "name": "Cassadaga Lakes Golf Club",
        "source": "Bing"
      }
    },
    {
      "type": "way",
      "id": 136094766,
      "center": {
        "lat": 42.2426164,
        "lon": -79.4617582
      },
      "tags": {
        "leisure": "golf_course",
        "name": "Chautauqua Point"
      }
    },
    {
      "type": "way",
      "id": 136095137,
      "center": {
        "lat": 42.4382487,
        "lon": -79.367525
      },
      "tags": {
        "leisure": "golf_course",
        "name": "Vineyards Golf Course"
      }
    },
    {
      "type": "way",
      "id": 136095138,
      "center": {
        "lat": 42.2630471,
        "lon": -79.7602524
      },
      "tags": {
        "addr:city": "Ripley",
        "addr:housenumber": "10775",
        "addr:postcode": "14775",
        "addr:state": "NY",
        "addr:street": "West Lake Road",
        "leisure": "golf_course",
        "name": "Lakeside Golf Course",
        "operator": "Town of Ripley"
      }
    },
    {
      "type": "way",
      "id": 136097903,
      "center": {
        "lat": 42.0684169,
        "lon": -79.341708
      },
      "tags": {
        "leisure": "golf_course",
        "name": "Maplehurst Country Club"
      }
    },
    {
      "type": "way",
      "id": 136097904,
      "center": {
        "lat": 42.0636746,
        "lon": -79.7281135
      },
      "tags": {
        "leisure": "golf_course",
        "name": "Peek'n Peak Resort",
        "website": "https://www.pknpk.com/WebModules/ServiceCategories/Golf.aspx?CID=4&SID=Summer"
      }
    },
    {
      "type": "way",
      "id": 136098717,
      "center": {
        "lat": 42.0604481,
        "lon": -79.7463933
      },
      "tags": {
        "leisure": "golf_course",
        "name": "Peek'n Peak Resort",
        "source": "Bing",
        "website": "https://www.pknpk.com/WebModules/ServiceCategories/Golf.aspx?CID=4&SID=Summer"
      }
    },
    {
      "type": "way",
      "id": 136100246,
      "center": {
        "lat": 42.7479524,
        "lon": -78.8619358
      },
      "tags": {
        "leisure": "golf_course",
        "name": "South Shore Country Club",
        "website": "https://www.southshoregc.com/"
      }
    },
    {
      "type": "way",
      "id": 136100247,
      "center": {
        "lat": 42.043784,
        "lon": -79.2594851
      },
      "tags": {
        "leisure": "golf_course",
        "name": "South Hills Country Club",
        "website": "http://www.southillscc.com/"
      }
    },
    {
      "type": "way",
      "id": 136101486,
      "center": {
        "lat": 42.3758534,
        "lon": -79.5200358
      },
      "tags": {
        "leisure": "golf_course",
        "name": "Sugar Hill Golf Course",
        "website": "https://sugarhillgolfcourse.webs.com/"
      }
    },
    {
      "type": "way",
      "id": 136101490,
      "center": {
        "lat": 42.0733482,
        "lon": -79.4175489
      },
      "tags": {
        "leisure": "golf_course",
        "name": "Timber Creek Golf Course"
      }
    },
    {
      "type": "way",
      "id": 136101493,
      "center": {
        "lat": 42.4616324,
        "lon": -79.1034083
      },
      "tags": {
        "leisure": "golf_course",
        "name": "Tri-County Country Club",
        "website": "https://www.tricountycountryclub.com/"
      }
    },
    {
      "type": "way",
      "id": 136104985,
      "center": {
        "lat": 42.1783204,
        "lon": -79.4513673
      },
      "tags": {
        "leisure": "golf_course",
        "name": "Willow Run Golf Course"
      }
    },
    {
      "type": "way",
      "id": 136104986,
      "center": {
        "lat": 42.1596962,
        "lon": -79.5062422
      },
      "tags": {
        "leisure": "golf_course",
        "name": "Woodcrest Golf Club",
        "website": "https://woodcrestgolfclub.com/"
      }
    },
    {
      "type": "way",
      "id": 136125001,
      "center": {
        "lat": 44.2922187,
        "lon": -74.0625909
      },
      "tags": {
        "leisure": "golf_course",
        "name": "Saranac Lake Golf Course"
      }
    },
    {
      "type": "way",
      "id": 136128371,
      "center": {
        "lat": 43.0069468,
        "lon": -78.844375
      },
      "tags": {
        "addr:city": "Tonawanda",
        "addr:housenumber": "70",
        "addr:postcode": "14150",
        "addr:state": "NY",
        "addr:street": "Brompton Road",
        "leisure": "golf_course",
        "name": "Brighton Park Golf Course",
        "operator": "Town of Tonawanda",
        "source": "Bing",
        "website": "https://tonawanda.ny.us/youth-parks-recreation/golf-courses.html"
      }
    },
    {
      "type": "way",
      "id": 136191651,
      "center": {
        "lat": 42.3509643,
        "lon": -77.6562446
      },
      "tags": {
        "leisure": "golf_course",
        "source": "Bing"
      }
    },
    {
      "type": "way",
      "id": 136193587,
      "center": {
        "lat": 42.0916218,
        "lon": -77.1542997
      },
      "tags": {
        "addr:city": "Painted Post",
        "addr:housenumber": "1959",
        "addr:postcode": "14870",
        "addr:street": "Indian Hills Road",
        "leisure": "golf_course",
        "name": "Indian Hills State Golf Course",
        "phone": "+1-607-523-8060",
        "source": "Bing",
        "website": "https://www.indianhills-golfclub.com/"
      }
    },
    {
      "type": "way",
      "id": 136194232,
      "center": {
        "lat": 42.1288126,
        "lon": -76.9397614
      },
      "tags": {
        "addr:city": "Big Flats",
        "addr:housenumber": "3069",
        "addr:postcode": "14814",
        "addr:state": "NY",
        "addr:street": "STATE ROUTE 352",
        "leisure": "golf_course",
        "name": "Willowcreek Golf Club - 18 Hole",
        "phone": "+1-607-562-8898",
        "source": "Bing",
        "website": "https://www.willowcreekgolfclub.com/"
      }
    },
    {
      "type": "way",
      "id": 136205885,
      "center": {
        "lat": 43.2305622,
        "lon": -77.7634807
      },